country,displayCountry,cca2,cca3,capital,flag,lat,lng,population,areaKm2,coastlineKm,highestPointM,highestPointName,difficulty,source_base,source_coastline,source_highestPoint
Afghanistan,Afghanistan,AF,AFG,Kabul,🇦🇫,34.526011,69.177684,26023100,652230,0,7492,Noshaq,medium,"countryinfo Python package dataset, generated 2026-06-17","CIA World Factbook coastline_wf via LSYS/country-coastline-distance, frozen in GeoRank v0.2","Flagpedia highest-point list and Wikipedia elevation-extremes table, frozen in GeoRank v0.2; values should be treated as game-source values"
Albania,Albania,AL,ALB,Tirana,🇦🇱,41.326873,19.818791,2895947,28748,362,2764,Korab,medium,"countryinfo Python package dataset, generated 2026-06-17","CIA World Factbook coastline_wf via LSYS/country-coastline-distance, frozen in GeoRank v0.2","Flagpedia highest-point list and Wikipedia elevation-extremes table, frozen in GeoRank v0.2; values should be treated as game-source values"
Algeria,Algeria,DZ,DZA,Algiers,🇩🇿,36.775361,3.060188,38700000,2381741,998,3003,Mount Tahat,medium,"countryinfo Python package dataset, generated 2026-06-17","CIA World Factbook coastline_wf via LSYS/country-coastline-distance, frozen in GeoRank v0.2","Flagpedia highest-point list and Wikipedia elevation-extremes table, frozen in GeoRank v0.2; values should be treated as game-source values"
Andorra,Andorra,AD,AND,Andorra la Vella,🇦🇩,42.5063,1.5218,80500,468,0,2942,Coma Pedrosa,hard,manual seed value; verify before v1 freeze,"CIA World Factbook coastline_wf via LSYS/country-coastline-distance, frozen in GeoRank v0.2","Flagpedia highest-point list and Wikipedia elevation-extremes table, frozen in GeoRank v0.2; values should be treated as game-source values"
Angola,Angola,AO,AGO,Luanda,🇦🇴,-8.82727,13.243951,24383301,1246700,1600,2620,Mount Moco,medium,"countryinfo Python package dataset, generated 2026-06-17","CIA World Factbook coastline_wf via LSYS/country-coastline-distance, frozen in GeoRank v0.2","Flagpedia highest-point list and Wikipedia elevation-extremes table, frozen in GeoRank v0.2; values should be treated as game-source values"
Antigua and Barbuda,Antigua and Barbuda,AG,ATG,Saint John's,🇦🇬,47.561701,-52.715149,86295,442,153,402,Boggy Peak,medium,"countryinfo Python package dataset, generated 2026-06-17","CIA World Factbook coastline_wf via LSYS/country-coastline-distance, frozen in GeoRank v0.2","Flagpedia highest-point list and Wikipedia elevation-extremes table, frozen in GeoRank v0.2; values should be treated as game-source values"
Argentina,Argentina,AR,ARG,Buenos Aires,🇦🇷,-34.607568,-58.437089,42669500,2780400,4989,6960,Aconcagua,medium,"countryinfo Python package dataset, generated 2026-06-17","CIA World Factbook coastline_wf via LSYS/country-coastline-distance, frozen in GeoRank v0.2","Flagpedia highest-point list and Wikipedia elevation-extremes table, frozen in GeoRank v0.2; values should be treated as game-source values"
Armenia,Armenia,AM,ARM,Yerevan,🇦🇲,40.177612,44.512585,3009800,29743,0,4090,Mount Aragats,hard,"countryinfo Python package dataset, generated 2026-06-17","CIA World Factbook coastline_wf via LSYS/country-coastline-distance, frozen in GeoRank v0.2","Flagpedia highest-point list and Wikipedia elevation-extremes table, frozen in GeoRank v0.2; values should be treated as game-source values"
Australia,Australia,AU,AUS,Canberra,🇦🇺,-35.297591,149.101268,23696900,7692024,25760,2228,Mount Kosciuszko,easy,"countryinfo Python package dataset, generated 2026-06-17","CIA World Factbook coastline_wf via LSYS/country-coastline-distance, frozen in GeoRank v0.2","Flagpedia highest-point list and Wikipedia elevation-extremes table, frozen in GeoRank v0.2; values should be treated as game-source values"
Austria,Austria,AT,AUT,Vienna,🇦🇹,48.208354,16.372504,8527230,83871,0,3798,Grossglockner,medium,"countryinfo Python package dataset, generated 2026-06-17","CIA World Factbook coastline_wf via LSYS/country-coastline-distance, frozen in GeoRank v0.2","Flagpedia highest-point list and Wikipedia elevation-extremes table, frozen in GeoRank v0.2; values should be treated as game-source values"
Azerbaijan,Azerbaijan,AZ,AZE,Baku,🇦🇿,40.375443,49.832675,9552500,86600,0,4485,Mount Bazarduzu,medium,"countryinfo Python package dataset, generated 2026-06-17","CIA World Factbook coastline_wf via LSYS/country-coastline-distance, frozen in GeoRank v0.2","Flagpedia highest-point list and Wikipedia elevation-extremes table, frozen in GeoRank v0.2; values should be treated as game-source values"
The Bahamas,Bahamas,BS,BHS,Nassau,🇧🇸,25.078346,-77.338333,319031,13943,3542,63,Mount Alvernia,medium,"countryinfo Python package dataset, generated 2026-06-17","CIA World Factbook coastline_wf via LSYS/country-coastline-distance, frozen in GeoRank v0.2","Flagpedia highest-point list and Wikipedia elevation-extremes table, frozen in GeoRank v0.2; values should be treated as game-source values"
Bahrain,Bahrain,BH,BHR,Manama,🇧🇭,26.223504,50.582244,1316500,765,161,122,Mountain of Smoke,medium,"countryinfo Python package dataset, generated 2026-06-17","CIA World Factbook coastline_wf via LSYS/country-coastline-distance, frozen in GeoRank v0.2","Flagpedia highest-point list and Wikipedia elevation-extremes table, frozen in GeoRank v0.2; values should be treated as game-source values"
Bangladesh,Bangladesh,BD,BGD,Dhaka,🇧🇩,23.759357,90.378814,157486000,147570,580,1052,Saka Haphong,medium,"countryinfo Python package dataset, generated 2026-06-17","CIA World Factbook coastline_wf via LSYS/country-coastline-distance, frozen in GeoRank v0.2","Flagpedia highest-point list and Wikipedia elevation-extremes table, frozen in GeoRank v0.2; values should be treated as game-source values"
Barbados,Barbados,BB,BRB,Bridgetown,🇧🇧,13.097783,-59.618418,285000,430,97,336,Mount Hillaby,medium,"countryinfo Python package dataset, generated 2026-06-17","CIA World Factbook coastline_wf via LSYS/country-coastline-distance, frozen in GeoRank v0.2","Flagpedia highest-point list and Wikipedia elevation-extremes table, frozen in GeoRank v0.2; values should be treated as game-source values"
Belarus,Belarus,BY,BLR,Minsk,🇧🇾,53.902334,27.561879,9475100,207600,0,346,Dzyarzhynskaya Hara,medium,"countryinfo Python package dataset, generated 2026-06-17","CIA World Factbook coastline_wf via LSYS/country-coastline-distance, frozen in GeoRank v0.2","Flagpedia highest-point list and Wikipedia elevation-extremes table, frozen in GeoRank v0.2; values should be treated as game-source values"
Belgium,Belgium,BE,BEL,Brussels,🇧🇪,50.846557,4.351697,11225469,30528,66.5,694,Signal de Botrange,medium,"countryinfo Python package dataset, generated 2026-06-17","CIA World Factbook coastline_wf via LSYS/country-coastline-distance, frozen in GeoRank v0.2","Flagpedia highest-point list and Wikipedia elevation-extremes table, frozen in GeoRank v0.2; values should be treated as game-source values"
Belize,Belize,BZ,BLZ,Belmopan,🇧🇿,17.250199,-88.770018,349728,22966,386,1124,Doyle's Delight,medium,"countryinfo Python package dataset, generated 2026-06-17","CIA World Factbook coastline_wf via LSYS/country-coastline-distance, frozen in GeoRank v0.2","Flagpedia highest-point list and Wikipedia elevation-extremes table, frozen in GeoRank v0.2; values should be treated as game-source values"
Benin,Benin,BJ,BEN,Porto-Novo,🇧🇯,6.499072,2.625336,9988068,112622,121,658,Mont Sokbaro,hard,"countryinfo Python package dataset, generated 2026-06-17","CIA World Factbook coastline_wf via LSYS/country-coastline-distance, frozen in GeoRank v0.2","Flagpedia highest-point list and Wikipedia elevation-extremes table, frozen in GeoRank v0.2; values should be treated as game-source values"
Bhutan,Bhutan,BT,BTN,Thimphu,🇧🇹,27.472762,89.629548,755030,38394,0,7570,Gangkhar Puensum,medium,"countryinfo Python package dataset, generated 2026-06-17","CIA World Factbook coastline_wf via LSYS/country-coastline-distance, frozen in GeoRank v0.2","Flagpedia highest-point list and Wikipedia elevation-extremes table, frozen in GeoRank v0.2; values should be treated as game-source values"
Bosnia and Herzegovina,Bosnia and Herzegovina,BA,BIH,Sarajevo,🇧🇦,43.851977,18.386687,3791622,51209,20,2386,Maglic,medium,"countryinfo Python package dataset, generated 2026-06-17","CIA World Factbook coastline_wf via LSYS/country-coastline-distance, frozen in GeoRank v0.2","Flagpedia highest-point list and Wikipedia elevation-extremes table, frozen in GeoRank v0.2; values should be treated as game-source values"
Botswana,Botswana,BW,BWA,Gaborone,🇧🇼,-24.658136,25.908847,2024904,582000,0,1491,Otse Hill,medium,"countryinfo Python package dataset, generated 2026-06-17","CIA World Factbook coastline_wf via LSYS/country-coastline-distance, frozen in GeoRank v0.2","Flagpedia highest-point list and Wikipedia elevation-extremes table, frozen in GeoRank v0.2; values should be treated as game-source values"
Brazil,Brazil,BR,BRA,Brasília,🇧🇷,-10.333333,-53.2,203586000,8515767,7491,2995,Pico da Neblina,easy,"countryinfo Python package dataset, generated 2026-06-17","CIA World Factbook coastline_wf via LSYS/country-coastline-distance, frozen in GeoRank v0.2","Flagpedia highest-point list and Wikipedia elevation-extremes table, frozen in GeoRank v0.2; values should be treated as game-source values"
Brunei,Brunei,BN,BRN,Bandar Seri Begawan,🇧🇳,4.889545,114.941757,393372,5765,161,1850,Bukit Pagon,medium,"countryinfo Python package dataset, generated 2026-06-17","CIA World Factbook coastline_wf via LSYS/country-coastline-distance, frozen in GeoRank v0.2","Flagpedia highest-point list and Wikipedia elevation-extremes table, frozen in GeoRank v0.2; values should be treated as game-source values"
Bulgaria,Bulgaria,BG,BGR,Sofia,🇧🇬,-15.25384,48.256216,7245677,110879,354,2925,Musala,medium,"countryinfo Python package dataset, generated 2026-06-17","CIA World Factbook coastline_wf via LSYS/country-coastline-distance, frozen in GeoRank v0.2","Flagpedia highest-point list and Wikipedia elevation-extremes table, frozen in GeoRank v0.2; values should be treated as game-source values"
Burkina Faso,Burkina Faso,BF,BFA,Ouagadougou,🇧🇫,12.368187,-1.527094,17322796,272967,0,749,Mount Tenakourou,medium,"countryinfo Python package dataset, generated 2026-06-17","CIA World Factbook coastline_wf via LSYS/country-coastline-distance, frozen in GeoRank v0.2","Flagpedia highest-point list and Wikipedia elevation-extremes table, frozen in GeoRank v0.2; values should be treated as game-source values"
Burundi,Burundi,BI,BDI,Bujumbura,🇧🇮,-3.363812,29.367503,9530434,27834,0,2684,Mount Heha,hard,"countryinfo Python package dataset, generated 2026-06-17","CIA World Factbook coastline_wf via LSYS/country-coastline-distance, frozen in GeoRank v0.2","Flagpedia highest-point list and Wikipedia elevation-extremes table, frozen in GeoRank v0.2; values should be treated as game-source values"
Cape Verde,Cabo Verde,CV,CPV,Praia,🇨🇻,14.916017,-23.509613,518467,4033,965,2829,Pico do Fogo,medium,"countryinfo Python package dataset, generated 2026-06-17","CIA World Factbook coastline_wf via LSYS/country-coastline-distance, frozen in GeoRank v0.2","Flagpedia highest-point list and Wikipedia elevation-extremes table, frozen in GeoRank v0.2; values should be treated as game-source values"
Cambodia,Cambodia,KH,KHM,Phnom Penh,🇰🇭,11.568271,104.922443,15184116,181035,443,1810,Phnom Aural,medium,"countryinfo Python package dataset, generated 2026-06-17","CIA World Factbook coastline_wf via LSYS/country-coastline-distance, frozen in GeoRank v0.2","Flagpedia highest-point list and Wikipedia elevation-extremes table, frozen in GeoRank v0.2; values should be treated as game-source values"
Cameroon,Cameroon,CM,CMR,Yaoundé,🇨🇲,3.868987,11.521334,20386799,475442,402,4040,Mount Cameroon,medium,"countryinfo Python package dataset, generated 2026-06-17","CIA World Factbook coastline_wf via LSYS/country-coastline-distance, frozen in GeoRank v0.2","Flagpedia highest-point list and Wikipedia elevation-extremes table, frozen in GeoRank v0.2; values should be treated as game-source values"
Canada,Canada,CA,CAN,Ottawa,🇨🇦,45.421106,-75.690308,35540419,9984670,202080,5959,Mount Logan,easy,"countryinfo Python package dataset, generated 2026-06-17","CIA World Factbook coastline_wf via LSYS/country-coastline-distance, frozen in GeoRank v0.2","Flagpedia highest-point list and Wikipedia elevation-extremes table, frozen in GeoRank v0.2; values should be treated as game-source values"
Central African Republic,Central African Republic,CF,CAF,Bangui,🇨🇫,4.390715,18.550913,4709000,622984,0,1420,Mont Ngaoui,medium,"countryinfo Python package dataset, generated 2026-06-17","CIA World Factbook coastline_wf via LSYS/country-coastline-distance, frozen in GeoRank v0.2","Flagpedia highest-point list and Wikipedia elevation-extremes table, frozen in GeoRank v0.2; values should be treated as game-source values"
Chad,Chad,TD,TCD,N'Djamena,🇹🇩,12.119154,15.050276,13211000,1284000,0,3445,Emi Koussi,medium,"countryinfo Python package dataset, generated 2026-06-17","CIA World Factbook coastline_wf via LSYS/country-coastline-distance, frozen in GeoRank v0.2","Flagpedia highest-point list and Wikipedia elevation-extremes table, frozen in GeoRank v0.2; values should be treated as game-source values"
Chile,Chile,CL,CHL,Santiago,🇨🇱,9.869479,-83.798075,17819054,756102,6435,6893,Ojos del Salado,medium,"countryinfo Python package dataset, generated 2026-06-17","CIA World Factbook coastline_wf via LSYS/country-coastline-distance, frozen in GeoRank v0.2","Flagpedia highest-point list and Wikipedia elevation-extremes table, frozen in GeoRank v0.2; values should be treated as game-source values"
China,China,CN,CHN,Beijing,🇨🇳,39.906217,116.391276,1367110000,9640011,14500,8848,Mount Everest,easy,"countryinfo Python package dataset, generated 2026-06-17","CIA World Factbook coastline_wf via LSYS/country-coastline-distance, frozen in GeoRank v0.2","Flagpedia highest-point list and Wikipedia elevation-extremes table, frozen in GeoRank v0.2; values should be treated as game-source values"
Colombia,Colombia,CO,COL,Bogotá,🇨🇴,4.59808,-74.076044,47907800,1141748,3208,5700,Pico Cristobal Colon,medium,"countryinfo Python package dataset, generated 2026-06-17","CIA World Factbook coastline_wf via LSYS/country-coastline-distance, frozen in GeoRank v0.2","Flagpedia highest-point list and Wikipedia elevation-extremes table, frozen in GeoRank v0.2; values should be treated as game-source values"
Comoros,Comoros,KM,COM,Moroni,🇰🇲,-11.693126,43.254304,763952,1862,340,2360,Mount Karthala,veryHard,"countryinfo Python package dataset, generated 2026-06-17","CIA World Factbook coastline_wf via LSYS/country-coastline-distance, frozen in GeoRank v0.2","Flagpedia highest-point list and Wikipedia elevation-extremes table, frozen in GeoRank v0.2; values should be treated as game-source values"
Costa Rica,Costa Rica,CR,CRI,San José,🇨🇷,9.932543,-84.079578,4713168,51100,1290,3820,Cerro Chirripo,medium,"countryinfo Python package dataset, generated 2026-06-17","CIA World Factbook coastline_wf via LSYS/country-coastline-distance, frozen in GeoRank v0.2","Flagpedia highest-point list and Wikipedia elevation-extremes table, frozen in GeoRank v0.2; values should be treated as game-source values"
Croatia,Croatia,HR,HRV,Zagreb,🇭🇷,45.813177,15.977048,4267558,56594,5835,1831,Dinara,medium,"countryinfo Python package dataset, generated 2026-06-17","CIA World Factbook coastline_wf via LSYS/country-coastline-distance, frozen in GeoRank v0.2","Flagpedia highest-point list and Wikipedia elevation-extremes table, frozen in GeoRank v0.2; values should be treated as game-source values"
Cuba,Cuba,CU,CUB,Havana,🇨🇺,23.135305,-82.358963,11210064,109884,3735,1974,Pico Turquino,medium,"countryinfo Python package dataset, generated 2026-06-17","CIA World Factbook coastline_wf via LSYS/country-coastline-distance, frozen in GeoRank v0.2","Flagpedia highest-point list and Wikipedia elevation-extremes table, frozen in GeoRank v0.2; values should be treated as game-source values"
Cyprus,Cyprus,CY,CYP,Nicosia,🇨🇾,35.17393,33.364726,858000,9251,648,1951,Mount Olympus,medium,"countryinfo Python package dataset, generated 2026-06-17","CIA World Factbook coastline_wf via LSYS/country-coastline-distance, frozen in GeoRank v0.2","Flagpedia highest-point list and Wikipedia elevation-extremes table, frozen in GeoRank v0.2; values should be treated as game-source values"
Czech Republic,Czechia,CZ,CZE,Prague,🇨🇿,50.087465,14.421254,10521600,78865,0,1603,Snezka,medium,"countryinfo Python package dataset, generated 2026-06-17","CIA World Factbook coastline_wf via LSYS/country-coastline-distance, frozen in GeoRank v0.2","Flagpedia highest-point list and Wikipedia elevation-extremes table, frozen in GeoRank v0.2; values should be treated as game-source values"
Ivory Coast,Côte d’Ivoire,CI,CIV,Yamoussoukro,🇨🇮,6.809107,-5.273263,23821000,322463,515,1752,Mont Nimba,medium,"countryinfo Python package dataset, generated 2026-06-17","CIA World Factbook coastline_wf via LSYS/country-coastline-distance, frozen in GeoRank v0.2","Flagpedia highest-point list and Wikipedia elevation-extremes table, frozen in GeoRank v0.2; values should be treated as game-source values"
Democratic Republic of the Congo,Democratic Republic of the Congo,CD,COD,Kinshasa,🇨🇩,-4.321706,15.312597,69360000,2344858,37,5109,Mount Stanley,medium,"countryinfo Python package dataset, generated 2026-06-17","CIA World Factbook coastline_wf via LSYS/country-coastline-distance, frozen in GeoRank v0.2","Flagpedia highest-point list and Wikipedia elevation-extremes table, frozen in GeoRank v0.2; values should be treated as game-source values"
Denmark,Denmark,DK,DNK,Copenhagen,🇩🇰,55.686724,12.570072,5655750,43094,7314,171,Mollehoj,medium,"countryinfo Python package dataset, generated 2026-06-17","CIA World Factbook coastline_wf via LSYS/country-coastline-distance, frozen in GeoRank v0.2","Flagpedia highest-point list and Wikipedia elevation-extremes table, frozen in GeoRank v0.2; values should be treated as game-source values"
Djibouti,Djibouti,DJ,DJI,Djibouti,🇩🇯,11.814597,42.845306,886000,23200,314,2028,Mousa Ali,hard,"countryinfo Python package dataset, generated 2026-06-17","CIA World Factbook coastline_wf via LSYS/country-coastline-distance, frozen in GeoRank v0.2","Flagpedia highest-point list and Wikipedia elevation-extremes table, frozen in GeoRank v0.2; values should be treated as game-source values"
Dominica,Dominica,DM,DMA,Roseau,🇩🇲,48.771037,-95.769788,71293,751,148,1447,Morne Diablotins,medium,"countryinfo Python package dataset, generated 2026-06-17","CIA World Factbook coastline_wf via LSYS/country-coastline-distance, frozen in GeoRank v0.2","Flagpedia highest-point list and Wikipedia elevation-extremes table, frozen in GeoRank v0.2; values should be treated as game-source values"
Dominican Republic,Dominican Republic,DO,DOM,Santo Domingo,🇩🇴,18.480197,-69.942111,10378267,48671,1288,3098,Pico Duarte,medium,"countryinfo Python package dataset, generated 2026-06-17","CIA World Factbook coastline_wf via LSYS/country-coastline-distance, frozen in GeoRank v0.2","Flagpedia highest-point list and Wikipedia elevation-extremes table, frozen in GeoRank v0.2; values should be treated as game-source values"
Ecuador,Ecuador,EC,ECU,Quito,🇪🇨,-0.220164,-78.512327,15888900,276841,2237,6267,Chimborazo,medium,"countryinfo Python package dataset, generated 2026-06-17","CIA World Factbook coastline_wf via LSYS/country-coastline-distance, frozen in GeoRank v0.2","Flagpedia highest-point list and Wikipedia elevation-extremes table, frozen in GeoRank v0.2; values should be treated as game-source values"
Egypt,Egypt,EG,EGY,Cairo,🇪🇬,30.048819,31.243666,87668100,1002450,2450,2629,Mount Catherine,easy,"countryinfo Python package dataset, generated 2026-06-17","CIA World Factbook coastline_wf via LSYS/country-coastline-distance, frozen in GeoRank v0.2","Flagpedia highest-point list and Wikipedia elevation-extremes table, frozen in GeoRank v0.2; values should be treated as game-source values"
El Salvador,El Salvador,SV,SLV,San Salvador,🇸🇻,13.698994,-89.191425,6401240,21041,307,2730,Cerro El Pital,medium,"countryinfo Python package dataset, generated 2026-06-17","CIA World Factbook coastline_wf via LSYS/country-coastline-distance, frozen in GeoRank v0.2","Flagpedia highest-point list and Wikipedia elevation-extremes table, frozen in GeoRank v0.2; values should be treated as game-source values"
Equatorial Guinea,Equatorial Guinea,GQ,GNQ,Malabo,🇬🇶,3.752828,8.780061,1430000,28051,296,3008,Pico Basile,medium,"countryinfo Python package dataset, generated 2026-06-17","CIA World Factbook coastline_wf via LSYS/country-coastline-distance, frozen in GeoRank v0.2","Flagpedia highest-point list and Wikipedia elevation-extremes table, frozen in GeoRank v0.2; values should be treated as game-source values"
Eritrea,Eritrea,ER,ERI,Asmara,🇪🇷,15.338967,38.932676,6536000,117600,2234,3018,Emba Soira,hard,"countryinfo Python package dataset, generated 2026-06-17","CIA World Factbook coastline_wf via LSYS/country-coastline-distance, frozen in GeoRank v0.2","Flagpedia highest-point list and Wikipedia elevation-extremes table, frozen in GeoRank v0.2; values should be treated as game-source values"
Estonia,Estonia,EE,EST,Tallinn,🇪🇪,59.437216,24.745369,1315819,45227,3794,318,Suur Munamagi,medium,"countryinfo Python package dataset, generated 2026-06-17","CIA World Factbook coastline_wf via LSYS/country-coastline-distance, frozen in GeoRank v0.2","Flagpedia highest-point list and Wikipedia elevation-extremes table, frozen in GeoRank v0.2; values should be treated as game-source values"
Swaziland,Eswatini,SZ,SWZ,Lobamba,🇸🇿,-26.446285,31.208378,1106189,17364,0,1862,Emlembe,hard,"countryinfo Python package dataset, generated 2026-06-17","CIA World Factbook coastline_wf via LSYS/country-coastline-distance, frozen in GeoRank v0.2","Flagpedia highest-point list and Wikipedia elevation-extremes table, frozen in GeoRank v0.2; values should be treated as game-source values"
Ethiopia,Ethiopia,ET,ETH,Addis Ababa,🇪🇹,9.010793,38.761252,87952991,1104300,0,4550,Ras Dejen,medium,"countryinfo Python package dataset, generated 2026-06-17","CIA World Factbook coastline_wf via LSYS/country-coastline-distance, frozen in GeoRank v0.2","Flagpedia highest-point list and Wikipedia elevation-extremes table, frozen in GeoRank v0.2; values should be treated as game-source values"
Fiji,Fiji,FJ,FJI,Suva,🇫🇯,-18.141588,178.442166,859178,18272,1129,1324,Tomanivi,medium,"countryinfo Python package dataset, generated 2026-06-17","CIA World Factbook coastline_wf via LSYS/country-coastline-distance, frozen in GeoRank v0.2","Flagpedia highest-point list and Wikipedia elevation-extremes table, frozen in GeoRank v0.2; values should be treated as game-source values"
Finland,Finland,FI,FIN,Helsinki,🇫🇮,60.16741,24.942577,5470437,338424,1250,1324,Halti,medium,"countryinfo Python package dataset, generated 2026-06-17","CIA World Factbook coastline_wf via LSYS/country-coastline-distance, frozen in GeoRank v0.2","Flagpedia highest-point list and Wikipedia elevation-extremes table, frozen in GeoRank v0.2; values should be treated as game-source values"
France,France,FR,FRA,Paris,🇫🇷,48.856697,2.351462,66078000,640679,3427,4810,Mont Blanc,easy,"countryinfo Python package dataset, generated 2026-06-17","CIA World Factbook coastline_wf via LSYS/country-coastline-distance, frozen in GeoRank v0.2","Flagpedia highest-point list and Wikipedia elevation-extremes table, frozen in GeoRank v0.2; values should be treated as game-source values"
Gabon,Gabon,GA,GAB,Libreville,🇬🇦,0.390002,9.454001,1711000,267668,885,1070,Mont Bengoue,medium,"countryinfo Python package dataset, generated 2026-06-17","CIA World Factbook coastline_wf via LSYS/country-coastline-distance, frozen in GeoRank v0.2","Flagpedia highest-point list and Wikipedia elevation-extremes table, frozen in GeoRank v0.2; values should be treated as game-source values"
The Gambia,Gambia,GM,GMB,Banjul,🇬🇲,13.441346,-16.562471,1882450,11295,80,64,Sare Firasu Hill,medium,"countryinfo Python package dataset, generated 2026-06-17","CIA World Factbook coastline_wf via LSYS/country-coastline-distance, frozen in GeoRank v0.2","Flagpedia highest-point list and Wikipedia elevation-extremes table, frozen in GeoRank v0.2; values should be treated as game-source values"
Georgia,Georgia,GE,GEO,Tbilisi,🇬🇪,41.693459,44.80145,4490500,69700,310,5201,Shkhara,hard,"countryinfo Python package dataset, generated 2026-06-17","CIA World Factbook coastline_wf via LSYS/country-coastline-distance, frozen in GeoRank v0.2","Flagpedia highest-point list and Wikipedia elevation-extremes table, frozen in GeoRank v0.2; values should be treated as game-source values"
Germany,Germany,DE,DEU,Berlin,🇩🇪,52.517036,13.38886,80783000,357114,2389,2962,Zugspitze,easy,"countryinfo Python package dataset, generated 2026-06-17","CIA World Factbook coastline_wf via LSYS/country-coastline-distance, frozen in GeoRank v0.2","Flagpedia highest-point list and Wikipedia elevation-extremes table, frozen in GeoRank v0.2; values should be treated as game-source values"
Ghana,Ghana,GH,GHA,Accra,🇬🇭,5.560014,-0.205744,27043093,238533,539,880,Mount Afadjato,medium,"countryinfo Python package dataset, generated 2026-06-17","CIA World Factbook coastline_wf via LSYS/country-coastline-distance, frozen in GeoRank v0.2","Flagpedia highest-point list and Wikipedia elevation-extremes table, frozen in GeoRank v0.2; values should be treated as game-source values"
Greece,Greece,GR,GRC,Athens,🇬🇷,37.983941,23.728305,10992589,131990,13676,2919,Mount Olympus,easy,"countryinfo Python package dataset, generated 2026-06-17","CIA World Factbook coastline_wf via LSYS/country-coastline-distance, frozen in GeoRank v0.2","Flagpedia highest-point list and Wikipedia elevation-extremes table, frozen in GeoRank v0.2; values should be treated as game-source values"
Grenada,Grenada,GD,GRD,St. George's,🇬🇩,48.658138,6.928099,103328,344,121,840,Mount Saint Catherine,medium,"countryinfo Python package dataset, generated 2026-06-17","CIA World Factbook coastline_wf via LSYS/country-coastline-distance, frozen in GeoRank v0.2","Flagpedia highest-point list and Wikipedia elevation-extremes table, frozen in GeoRank v0.2; values should be treated as game-source values"
Guatemala,Guatemala,GT,GTM,Guatemala City,🇬🇹,14.622233,-90.518519,15806675,108889,400,4220,Volcan Tajumulco,medium,"countryinfo Python package dataset, generated 2026-06-17","CIA World Factbook coastline_wf via LSYS/country-coastline-distance, frozen in GeoRank v0.2","Flagpedia highest-point list and Wikipedia elevation-extremes table, frozen in GeoRank v0.2; values should be treated as game-source values"
Guinea,Guinea,GN,GIN,Conakry,🇬🇳,9.51706,-13.699843,10628972,245857,320,1752,Mont Nimba,medium,"countryinfo Python package dataset, generated 2026-06-17","CIA World Factbook coastline_wf via LSYS/country-coastline-distance, frozen in GeoRank v0.2","Flagpedia highest-point list and Wikipedia elevation-extremes table, frozen in GeoRank v0.2; values should be treated as game-source values"
Guinea-Bissau,Guinea-Bissau,GW,GNB,Bissau,🇬🇼,11.861324,-15.583055,1746000,36125,350,300,Dongol Ronde,hard,"countryinfo Python package dataset, generated 2026-06-17","CIA World Factbook coastline_wf via LSYS/country-coastline-distance, frozen in GeoRank v0.2","Flagpedia highest-point list and Wikipedia elevation-extremes table, frozen in GeoRank v0.2; values should be treated as game-source values"
Guyana,Guyana,GY,GUY,Georgetown,🇬🇾,6.802577,-58.162861,784894,214969,459,2772,Mount Roraima,medium,"countryinfo Python package dataset, generated 2026-06-17","CIA World Factbook coastline_wf via LSYS/country-coastline-distance, frozen in GeoRank v0.2","Flagpedia highest-point list and Wikipedia elevation-extremes table, frozen in GeoRank v0.2; values should be treated as game-source values"
Haiti,Haiti,HT,HTI,Port-au-Prince,🇭🇹,18.547327,-72.339593,10745665,27750,1771,2680,Pic la Selle,medium,"countryinfo Python package dataset, generated 2026-06-17","CIA World Factbook coastline_wf via LSYS/country-coastline-distance, frozen in GeoRank v0.2","Flagpedia highest-point list and Wikipedia elevation-extremes table, frozen in GeoRank v0.2; values should be treated as game-source values"
Honduras,Honduras,HN,HND,Tegucigalpa,🇭🇳,14.105686,-87.204676,8725111,112492,820,2870,Cerro Las Minas,medium,"countryinfo Python package dataset, generated 2026-06-17","CIA World Factbook coastline_wf via LSYS/country-coastline-distance, frozen in GeoRank v0.2","Flagpedia highest-point list and Wikipedia elevation-extremes table, frozen in GeoRank v0.2; values should be treated as game-source values"
Hungary,Hungary,HU,HUN,Budapest,🇭🇺,47.498382,19.040471,9879000,93028,0,1014,Kekes,medium,"countryinfo Python package dataset, generated 2026-06-17","CIA World Factbook coastline_wf via LSYS/country-coastline-distance, frozen in GeoRank v0.2","Flagpedia highest-point list and Wikipedia elevation-extremes table, frozen in GeoRank v0.2; values should be treated as game-source values"
Iceland,Iceland,IS,ISL,Reykjavik,🇮🇸,64.145981,-21.942237,328170,103000,4970,2110,Hvannadalshnukur,medium,"countryinfo Python package dataset, generated 2026-06-17","CIA World Factbook coastline_wf via LSYS/country-coastline-distance, frozen in GeoRank v0.2","Flagpedia highest-point list and Wikipedia elevation-extremes table, frozen in GeoRank v0.2; values should be treated as game-source values"
India,India,IN,IND,New Delhi,🇮🇳,28.614179,77.202266,1263930000,3287590,7000,8586,Kangchenjunga,easy,"countryinfo Python package dataset, generated 2026-06-17","CIA World Factbook coastline_wf via LSYS/country-coastline-distance, frozen in GeoRank v0.2","Flagpedia highest-point list and Wikipedia elevation-extremes table, frozen in GeoRank v0.2; values should be treated as game-source values"
Indonesia,Indonesia,ID,IDN,Jakarta,🇮🇩,-6.175394,106.827183,252164800,1904569,54716,4884,Puncak Jaya,medium,"countryinfo Python package dataset, generated 2026-06-17","CIA World Factbook coastline_wf via LSYS/country-coastline-distance, frozen in GeoRank v0.2","Flagpedia highest-point list and Wikipedia elevation-extremes table, frozen in GeoRank v0.2; values should be treated as game-source values"
Iran,Iran,IR,IRN,Tehran,🇮🇷,35.700618,51.401378,77966400,1648195,2440,5610,Damavand,medium,"countryinfo Python package dataset, generated 2026-06-17","CIA World Factbook coastline_wf via LSYS/country-coastline-distance, frozen in GeoRank v0.2","Flagpedia highest-point list and Wikipedia elevation-extremes table, frozen in GeoRank v0.2; values should be treated as game-source values"
Iraq,Iraq,IQ,IRQ,Baghdad,🇮🇶,33.302431,44.378799,36004552,438317,58,3611,Cheekha Dar,medium,"countryinfo Python package dataset, generated 2026-06-17","CIA World Factbook coastline_wf via LSYS/country-coastline-distance, frozen in GeoRank v0.2","Flagpedia highest-point list and Wikipedia elevation-extremes table, frozen in GeoRank v0.2; values should be treated as game-source values"
Ireland,Ireland,IE,IRL,Dublin,🇮🇪,53.349764,-6.260273,6378000,70273,1448,1038,Carrauntoohil,medium,"countryinfo Python package dataset, generated 2026-06-17","CIA World Factbook coastline_wf via LSYS/country-coastline-distance, frozen in GeoRank v0.2","Flagpedia highest-point list and Wikipedia elevation-extremes table, frozen in GeoRank v0.2; values should be treated as game-source values"
Israel,Israel,IL,ISR,Jerusalem,🇮🇱,31.778345,35.225079,8268400,20770,273,1208,Mount Meron,medium,"countryinfo Python package dataset, generated 2026-06-17","CIA World Factbook coastline_wf via LSYS/country-coastline-distance, frozen in GeoRank v0.2","Flagpedia highest-point list and Wikipedia elevation-extremes table, frozen in GeoRank v0.2; values should be treated as game-source values"
Italy,Italy,IT,ITA,Rome,🇮🇹,41.89332,12.482932,60769102,301336,7600,4810,Monte Bianco,easy,"countryinfo Python package dataset, generated 2026-06-17","CIA World Factbook coastline_wf via LSYS/country-coastline-distance, frozen in GeoRank v0.2","Flagpedia highest-point list and Wikipedia elevation-extremes table, frozen in GeoRank v0.2; values should be treated as game-source values"
Jamaica,Jamaica,JM,JAM,Kingston,🇯🇲,17.971215,-76.792813,2717991,10991,1022,2256,Blue Mountain Peak,medium,"countryinfo Python package dataset, generated 2026-06-17","CIA World Factbook coastline_wf via LSYS/country-coastline-distance, frozen in GeoRank v0.2","Flagpedia highest-point list and Wikipedia elevation-extremes table, frozen in GeoRank v0.2; values should be treated as game-source values"
Japan,Japan,JP,JPN,Tokyo,🇯🇵,35.682839,139.759455,127080000,377930,29751,3776,Mount Fuji,easy,"countryinfo Python package dataset, generated 2026-06-17","CIA World Factbook coastline_wf via LSYS/country-coastline-distance, frozen in GeoRank v0.2","Flagpedia highest-point list and Wikipedia elevation-extremes table, frozen in GeoRank v0.2; values should be treated as game-source values"
Jordan,Jordan,JO,JOR,Amman,🇯🇴,31.951569,35.923962,6666960,89342,26,1854,Jabal Umm ad Dami,medium,"countryinfo Python package dataset, generated 2026-06-17","CIA World Factbook coastline_wf via LSYS/country-coastline-distance, frozen in GeoRank v0.2","Flagpedia highest-point list and Wikipedia elevation-extremes table, frozen in GeoRank v0.2; values should be treated as game-source values"
Kazakhstan,Kazakhstan,KZ,KAZ,Astana,🇰🇿,51.12822,71.430668,17377800,2724900,0,7010,Khan Tengri,hard,"countryinfo Python package dataset, generated 2026-06-17","CIA World Factbook coastline_wf via LSYS/country-coastline-distance, frozen in GeoRank v0.2","Flagpedia highest-point list and Wikipedia elevation-extremes table, frozen in GeoRank v0.2; values should be treated as game-source values"
Kenya,Kenya,KE,KEN,Nairobi,🇰🇪,-1.283253,36.817245,41800000,580367,536,5199,Mount Kenya,medium,"countryinfo Python package dataset, generated 2026-06-17","CIA World Factbook coastline_wf via LSYS/country-coastline-distance, frozen in GeoRank v0.2","Flagpedia highest-point list and Wikipedia elevation-extremes table, frozen in GeoRank v0.2; values should be treated as game-source values"
Kiribati,Kiribati,KI,KIR,South Tarawa,🇰🇮,1.349078,173.038651,106461,811,1143,81,Banaba high point,veryHard,"countryinfo Python package dataset, generated 2026-06-17","CIA World Factbook coastline_wf via LSYS/country-coastline-distance, frozen in GeoRank v0.2","Flagpedia highest-point list and Wikipedia elevation-extremes table, frozen in GeoRank v0.2; values should be treated as game-source values"
Kuwait,Kuwait,KW,KWT,Kuwait City,🇰🇼,29.379709,47.973563,3268431,17818,499,306,Mutla Ridge,medium,"countryinfo Python package dataset, generated 2026-06-17","CIA World Factbook coastline_wf via LSYS/country-coastline-distance, frozen in GeoRank v0.2","Flagpedia highest-point list and Wikipedia elevation-extremes table, frozen in GeoRank v0.2; values should be treated as game-source values"
Kyrgyzstan,Kyrgyzstan,KG,KGZ,Bishkek,🇰🇬,42.876562,74.607008,5776570,199951,0,7439,Jengish Chokusu,hard,"countryinfo Python package dataset, generated 2026-06-17","CIA World Factbook coastline_wf via LSYS/country-coastline-distance, frozen in GeoRank v0.2","Flagpedia highest-point list and Wikipedia elevation-extremes table, frozen in GeoRank v0.2; values should be treated as game-source values"
Laos,Laos,LA,LAO,Vientiane,🇱🇦,17.964099,102.613371,6693300,236800,0,2817,Phou Bia,hard,"countryinfo Python package dataset, generated 2026-06-17","CIA World Factbook coastline_wf via LSYS/country-coastline-distance, frozen in GeoRank v0.2","Flagpedia highest-point list and Wikipedia elevation-extremes table, frozen in GeoRank v0.2; values should be treated as game-source values"
Latvia,Latvia,LV,LVA,Riga,🇱🇻,56.949398,24.105185,1991800,64559,531,312,Gaizinkalns,medium,"countryinfo Python package dataset, generated 2026-06-17","CIA World Factbook coastline_wf via LSYS/country-coastline-distance, frozen in GeoRank v0.2","Flagpedia highest-point list and Wikipedia elevation-extremes table, frozen in GeoRank v0.2; values should be treated as game-source values"
Lebanon,Lebanon,LB,LBN,Beirut,🇱🇧,33.89592,35.47843,4104000,10452,225,3088,Qurnat as Sawda',medium,"countryinfo Python package dataset, generated 2026-06-17","CIA World Factbook coastline_wf via LSYS/country-coastline-distance, frozen in GeoRank v0.2","Flagpedia highest-point list and Wikipedia elevation-extremes table, frozen in GeoRank v0.2; values should be treated as game-source values"
Lesotho,Lesotho,LS,LSO,Maseru,🇱🇸,-29.310054,27.478222,2098000,30355,0,3482,Thabana Ntlenyana,medium,"countryinfo Python package dataset, generated 2026-06-17","CIA World Factbook coastline_wf via LSYS/country-coastline-distance, frozen in GeoRank v0.2","Flagpedia highest-point list and Wikipedia elevation-extremes table, frozen in GeoRank v0.2; values should be treated as game-source values"
Liberia,Liberia,LR,LBR,Monrovia,🇱🇷,6.328034,-10.797788,4397000,111369,579,1440,Mount Wuteve,medium,"countryinfo Python package dataset, generated 2026-06-17","CIA World Factbook coastline_wf via LSYS/country-coastline-distance, frozen in GeoRank v0.2","Flagpedia highest-point list and Wikipedia elevation-extremes table, frozen in GeoRank v0.2; values should be treated as game-source values"
Libya,Libya,LY,LBY,Tripoli,🇱🇾,32.896672,13.177792,6253000,1759540,1770,2267,Bikku Bitti,medium,"countryinfo Python package dataset, generated 2026-06-17","CIA World Factbook coastline_wf via LSYS/country-coastline-distance, frozen in GeoRank v0.2","Flagpedia highest-point list and Wikipedia elevation-extremes table, frozen in GeoRank v0.2; values should be treated as game-source values"
Liechtenstein,Liechtenstein,LI,LIE,Vaduz,🇱🇮,47.139286,9.522796,37132,160,0,2599,Grauspitz,medium,"countryinfo Python package dataset, generated 2026-06-17","CIA World Factbook coastline_wf via LSYS/country-coastline-distance, frozen in GeoRank v0.2","Flagpedia highest-point list and Wikipedia elevation-extremes table, frozen in GeoRank v0.2; values should be treated as game-source values"
Lithuania,Lithuania,LT,LTU,Vilnius,🇱🇹,54.687046,25.282911,2927310,65300,90,294,Aukstojas Hill,medium,"countryinfo Python package dataset, generated 2026-06-17","CIA World Factbook coastline_wf via LSYS/country-coastline-distance, frozen in GeoRank v0.2","Flagpedia highest-point list and Wikipedia elevation-extremes table, frozen in GeoRank v0.2; values should be treated as game-source values"
Luxembourg,Luxembourg,LU,LUX,Luxembourg,🇱🇺,49.815868,6.129675,549700,2586,0,560,Kneiff,medium,"countryinfo Python package dataset, generated 2026-06-17","CIA World Factbook coastline_wf via LSYS/country-coastline-distance, frozen in GeoRank v0.2","Flagpedia highest-point list and Wikipedia elevation-extremes table, frozen in GeoRank v0.2; values should be treated as game-source values"
Madagascar,Madagascar,MG,MDG,Antananarivo,🇲🇬,-18.910012,47.525581,21842167,587041,4828,2876,Maromokotro,medium,"countryinfo Python package dataset, generated 2026-06-17","CIA World Factbook coastline_wf via LSYS/country-coastline-distance, frozen in GeoRank v0.2","Flagpedia highest-point list and Wikipedia elevation-extremes table, frozen in GeoRank v0.2; values should be treated as game-source values"
Malawi,Malawi,MW,MWI,Lilongwe,🇲🇼,-13.987511,33.768144,15805239,118484,0,3002,Mount Mulanje,medium,"countryinfo Python package dataset, generated 2026-06-17","CIA World Factbook coastline_wf via LSYS/country-coastline-distance, frozen in GeoRank v0.2","Flagpedia highest-point list and Wikipedia elevation-extremes table, frozen in GeoRank v0.2; values should be treated as game-source values"
Malaysia,Malaysia,MY,MYS,Kuala Lumpur,🇲🇾,3.151696,101.694237,30430500,330803,4675,4095,Gunung Kinabalu,medium,"countryinfo Python package dataset, generated 2026-06-17","CIA World Factbook coastline_wf via LSYS/country-coastline-distance, frozen in GeoRank v0.2","Flagpedia highest-point list and Wikipedia elevation-extremes table, frozen in GeoRank v0.2; values should be treated as game-source values"
Maldives,Maldives,MV,MDV,Malé,🇲🇻,16.370036,-2.290024,341256,300,644,5,Mount Villingili,medium,"countryinfo Python package dataset, generated 2026-06-17","CIA World Factbook coastline_wf via LSYS/country-coastline-distance, frozen in GeoRank v0.2","Flagpedia highest-point list and Wikipedia elevation-extremes table, frozen in GeoRank v0.2; values should be treated as game-source values"
Mali,Mali,ML,MLI,Bamako,🇲🇱,12.605033,-7.986514,15768000,1240192,0,1155,Hombori Tondo,medium,"countryinfo Python package dataset, generated 2026-06-17","CIA World Factbook coastline_wf via LSYS/country-coastline-distance, frozen in GeoRank v0.2","Flagpedia highest-point list and Wikipedia elevation-extremes table, frozen in GeoRank v0.2; values should be treated as game-source values"
Malta,Malta,MT,MLT,Valletta,🇲🇹,35.898982,14.513676,416055,316,196.8,253,Ta'Dmejrek,medium,"countryinfo Python package dataset, generated 2026-06-17","CIA World Factbook coastline_wf via LSYS/country-coastline-distance, frozen in GeoRank v0.2","Flagpedia highest-point list and Wikipedia elevation-extremes table, frozen in GeoRank v0.2; values should be treated as game-source values"
Marshall Islands,Marshall Islands,MH,MHL,Majuro,🇲🇭,7.090992,171.381635,56086,181,370.4,10,Likiep high point,veryHard,"countryinfo Python package dataset, generated 2026-06-17","CIA World Factbook coastline_wf via LSYS/country-coastline-distance, frozen in GeoRank v0.2","Flagpedia highest-point list and Wikipedia elevation-extremes table, frozen in GeoRank v0.2; values should be treated as game-source values"
Mauritania,Mauritania,MR,MRT,Nouakchott,🇲🇷,18.079238,-15.978007,3545620,1030700,754,915,Kediet ej Jill,medium,"countryinfo Python package dataset, generated 2026-06-17","CIA World Factbook coastline_wf via LSYS/country-coastline-distance, frozen in GeoRank v0.2","Flagpedia highest-point list and Wikipedia elevation-extremes table, frozen in GeoRank v0.2; values should be treated as game-source values"
Mauritius,Mauritius,MU,MUS,Port Louis,🇲🇺,-20.163728,57.504533,1261208,2040,177,828,Piton de la Petite Riviere Noire,medium,"countryinfo Python package dataset, generated 2026-06-17","CIA World Factbook coastline_wf via LSYS/country-coastline-distance, frozen in GeoRank v0.2","Flagpedia highest-point list and Wikipedia elevation-extremes table, frozen in GeoRank v0.2; values should be treated as game-source values"
Mexico,Mexico,MX,MEX,Mexico City,🇲🇽,19.43263,-99.133178,119713203,1964375,9330,5636,Volcan Citlaltepetl,medium,"countryinfo Python package dataset, generated 2026-06-17","CIA World Factbook coastline_wf via LSYS/country-coastline-distance, frozen in GeoRank v0.2","Flagpedia highest-point list and Wikipedia elevation-extremes table, frozen in GeoRank v0.2; values should be treated as game-source values"
Federated States of Micronesia,Micronesia,FM,FSM,Palikir,🇫🇲,6.920744,158.162714,101351,702,6112,782,Nanlaud,veryHard,"countryinfo Python package dataset, generated 2026-06-17","CIA World Factbook coastline_wf via LSYS/country-coastline-distance, frozen in GeoRank v0.2","Flagpedia highest-point list and Wikipedia elevation-extremes table, frozen in GeoRank v0.2; values should be treated as game-source values"
Moldova,Moldova,MD,MDA,Chișinău,🇲🇩,47.024471,28.832253,3557600,33846,0,430,Balanesti Hill,hard,"countryinfo Python package dataset, generated 2026-06-17","CIA World Factbook coastline_wf via LSYS/country-coastline-distance, frozen in GeoRank v0.2","Flagpedia highest-point list and Wikipedia elevation-extremes table, frozen in GeoRank v0.2; values should be treated as game-source values"
Monaco,Monaco,MC,MCO,Monaco,🇲🇨,43.732349,7.427683,36950,2.02,4.1,161,Chemin des Revoires,medium,"countryinfo Python package dataset, generated 2026-06-17","CIA World Factbook coastline_wf via LSYS/country-coastline-distance, frozen in GeoRank v0.2","Flagpedia highest-point list and Wikipedia elevation-extremes table, frozen in GeoRank v0.2; values should be treated as game-source values"
Mongolia,Mongolia,MN,MNG,Ulan Bator,🇲🇳,47.918468,106.917702,2987733,1564110,0,4374,Khuiten Peak,medium,"countryinfo Python package dataset, generated 2026-06-17","CIA World Factbook coastline_wf via LSYS/country-coastline-distance, frozen in GeoRank v0.2","Flagpedia highest-point list and Wikipedia elevation-extremes table, frozen in GeoRank v0.2; values should be treated as game-source values"
Montenegro,Montenegro,ME,MNE,Podgorica,🇲🇪,42.4304,19.2594,616000,13812,293.5,2534,Zla Kolata,medium,manual seed value; verify before v1 freeze,"CIA World Factbook coastline_wf via LSYS/country-coastline-distance, frozen in GeoRank v0.2","Flagpedia highest-point list and Wikipedia elevation-extremes table, frozen in GeoRank v0.2; values should be treated as game-source values"
Morocco,Morocco,MA,MAR,Rabat,🇲🇦,34.022405,-6.834543,33465000,446550,1835,4165,Jbel Toubkal,medium,"countryinfo Python package dataset, generated 2026-06-17","CIA World Factbook coastline_wf via LSYS/country-coastline-distance, frozen in GeoRank v0.2","Flagpedia highest-point list and Wikipedia elevation-extremes table, frozen in GeoRank v0.2; values should be treated as game-source values"
Mozambique,Mozambique,MZ,MOZ,Maputo,🇲🇿,-25.966213,32.56745,25041922,801590,2470,2436,Monte Binga,medium,"countryinfo Python package dataset, generated 2026-06-17","CIA World Factbook coastline_wf via LSYS/country-coastline-distance, frozen in GeoRank v0.2","Flagpedia highest-point list and Wikipedia elevation-extremes table, frozen in GeoRank v0.2; values should be treated as game-source values"
Myanmar,Myanmar,MM,MMR,Naypyidaw,🇲🇲,19.7633,96.0785,54500000,676578,1930,5881,Hkakabo Razi,medium,manual seed value; verify before v1 freeze,"CIA World Factbook coastline_wf via LSYS/country-coastline-distance, frozen in GeoRank v0.2","Flagpedia highest-point list and Wikipedia elevation-extremes table, frozen in GeoRank v0.2; values should be treated as game-source values"
Namibia,Namibia,NA,NAM,Windhoek,🇳🇦,-22.574392,17.079069,2113077,825615,1572,2573,Konigstein,medium,"countryinfo Python package dataset, generated 2026-06-17","CIA World Factbook coastline_wf via LSYS/country-coastline-distance, frozen in GeoRank v0.2; manual ISO-name fix applied for this row","Flagpedia highest-point list and Wikipedia elevation-extremes table, frozen in GeoRank v0.2; values should be treated as game-source values"
Nauru,Nauru,NR,NRU,Yaren,🇳🇷,-0.547101,166.9164,10084,21,30,71,Command Ridge,veryHard,"countryinfo Python package dataset, generated 2026-06-17","CIA World Factbook coastline_wf via LSYS/country-coastline-distance, frozen in GeoRank v0.2","Flagpedia highest-point list and Wikipedia elevation-extremes table, frozen in GeoRank v0.2; values should be treated as game-source values"
Nepal,Nepal,NP,NPL,Kathmandu,🇳🇵,27.708317,85.320582,27646053,147181,0,8848,Mount Everest,medium,"countryinfo Python package dataset, generated 2026-06-17","CIA World Factbook coastline_wf via LSYS/country-coastline-distance, frozen in GeoRank v0.2","Flagpedia highest-point list and Wikipedia elevation-extremes table, frozen in GeoRank v0.2; values should be treated as game-source values"
Netherlands,Netherlands,NL,NLD,Amsterdam,🇳🇱,52.37276,4.893604,16881000,41850,451,887,Mount Scenery,medium,"countryinfo Python package dataset, generated 2026-06-17","CIA World Factbook coastline_wf via LSYS/country-coastline-distance, frozen in GeoRank v0.2","Flagpedia highest-point list and Wikipedia elevation-extremes table, frozen in GeoRank v0.2; values should be treated as game-source values"
New Zealand,New Zealand,NZ,NZL,Wellington,🇳🇿,-41.288795,174.777211,4547900,270467,15134,3724,Aoraki / Mount Cook,medium,"countryinfo Python package dataset, generated 2026-06-17","CIA World Factbook coastline_wf via LSYS/country-coastline-distance, frozen in GeoRank v0.2","Flagpedia highest-point list and Wikipedia elevation-extremes table, frozen in GeoRank v0.2; values should be treated as game-source values"
Nicaragua,Nicaragua,NI,NIC,Managua,🇳🇮,12.145991,-86.274666,6134270,130373,910,2107,Mogoton,medium,"countryinfo Python package dataset, generated 2026-06-17","CIA World Factbook coastline_wf via LSYS/country-coastline-distance, frozen in GeoRank v0.2","Flagpedia highest-point list and Wikipedia elevation-extremes table, frozen in GeoRank v0.2; values should be treated as game-source values"
Niger,Niger,NE,NER,Niamey,🇳🇪,13.524834,2.109823,17138707,1267000,0,2022,Mont Idoukal-n-Taghes,medium,"countryinfo Python package dataset, generated 2026-06-17","CIA World Factbook coastline_wf via LSYS/country-coastline-distance, frozen in GeoRank v0.2","Flagpedia highest-point list and Wikipedia elevation-extremes table, frozen in GeoRank v0.2; values should be treated as game-source values"
Nigeria,Nigeria,NG,NGA,Abuja,🇳🇬,9.06433,7.489297,178517000,923768,853,2419,Chappal Waddi,medium,"countryinfo Python package dataset, generated 2026-06-17","CIA World Factbook coastline_wf via LSYS/country-coastline-distance, frozen in GeoRank v0.2","Flagpedia highest-point list and Wikipedia elevation-extremes table, frozen in GeoRank v0.2; values should be treated as game-source values"
North Korea,North Korea,KP,PRK,Pyongyang,🇰🇵,39.019474,125.753388,25027000,120538,2495,2744,Paektu-san,medium,"countryinfo Python package dataset, generated 2026-06-17","CIA World Factbook coastline_wf via LSYS/country-coastline-distance, frozen in GeoRank v0.2","Flagpedia highest-point list and Wikipedia elevation-extremes table, frozen in GeoRank v0.2; values should be treated as game-source values"
Republic of Macedonia,North Macedonia,MK,MKD,Skopje,🇲🇰,41.996092,21.43165,2058539,25713,0,2764,Golem Korab,hard,"countryinfo Python package dataset, generated 2026-06-17","CIA World Factbook coastline_wf via LSYS/country-coastline-distance, frozen in GeoRank v0.2","Flagpedia highest-point list and Wikipedia elevation-extremes table, frozen in GeoRank v0.2; values should be treated as game-source values"
Norway,Norway,NO,NOR,Oslo,🇳🇴,59.91333,10.73897,5156450,323802,25148,2469,Galdhopiggen,medium,"countryinfo Python package dataset, generated 2026-06-17","CIA World Factbook coastline_wf via LSYS/country-coastline-distance, frozen in GeoRank v0.2","Flagpedia highest-point list and Wikipedia elevation-extremes table, frozen in GeoRank v0.2; values should be treated as game-source values"
Oman,Oman,OM,OMN,Muscat,🇴🇲,23.599786,58.54513,4089076,309500,2092,3009,Jabal Shams,medium,"countryinfo Python package dataset, generated 2026-06-17","CIA World Factbook coastline_wf via LSYS/country-coastline-distance, frozen in GeoRank v0.2","Flagpedia highest-point list and Wikipedia elevation-extremes table, frozen in GeoRank v0.2; values should be treated as game-source values"
Pakistan,Pakistan,PK,PAK,Islamabad,🇵🇰,33.693812,73.065151,188410000,881912,1046,8611,K2,medium,"countryinfo Python package dataset, generated 2026-06-17","CIA World Factbook coastline_wf via LSYS/country-coastline-distance, frozen in GeoRank v0.2","Flagpedia highest-point list and Wikipedia elevation-extremes table, frozen in GeoRank v0.2; values should be treated as game-source values"
Palau,Palau,PW,PLW,Ngerulmud,🇵🇼,7.500619,134.624301,20901,459,1519,242,Mount Ngerchelchuus,veryHard,"countryinfo Python package dataset, generated 2026-06-17","CIA World Factbook coastline_wf via LSYS/country-coastline-distance, frozen in GeoRank v0.2","Flagpedia highest-point list and Wikipedia elevation-extremes table, frozen in GeoRank v0.2; values should be treated as game-source values"
Panama,Panama,PA,PAN,Panama City,🇵🇦,8.971449,-79.53418,3713312,75417,2490,3475,Volcan Baru,medium,"countryinfo Python package dataset, generated 2026-06-17","CIA World Factbook coastline_wf via LSYS/country-coastline-distance, frozen in GeoRank v0.2","Flagpedia highest-point list and Wikipedia elevation-extremes table, frozen in GeoRank v0.2; values should be treated as game-source values"
Papua New Guinea,Papua New Guinea,PG,PNG,Port Moresby,🇵🇬,-9.47433,147.15995,7398500,462840,5152,4509,Mount Wilhelm,medium,"countryinfo Python package dataset, generated 2026-06-17","CIA World Factbook coastline_wf via LSYS/country-coastline-distance, frozen in GeoRank v0.2","Flagpedia highest-point list and Wikipedia elevation-extremes table, frozen in GeoRank v0.2; values should be treated as game-source values"
Paraguay,Paraguay,PY,PRY,Asunción,🇵🇾,-25.280046,-57.634381,6893727,406752,0,842,Cerro Pero,medium,"countryinfo Python package dataset, generated 2026-06-17","CIA World Factbook coastline_wf via LSYS/country-coastline-distance, frozen in GeoRank v0.2","Flagpedia highest-point list and Wikipedia elevation-extremes table, frozen in GeoRank v0.2; values should be treated as game-source values"
Peru,Peru,PE,PER,Lima,🇵🇪,-12.062106,-77.036526,30814175,1285216,2414,6768,Huascaran,medium,"countryinfo Python package dataset, generated 2026-06-17","CIA World Factbook coastline_wf via LSYS/country-coastline-distance, frozen in GeoRank v0.2","Flagpedia highest-point list and Wikipedia elevation-extremes table, frozen in GeoRank v0.2; values should be treated as game-source values"
Philippines,Philippines,PH,PHL,Manila,🇵🇭,14.590622,120.97997,100697400,342353,36289,2954,Mount Apo,medium,"countryinfo Python package dataset, generated 2026-06-17","CIA World Factbook coastline_wf via LSYS/country-coastline-distance, frozen in GeoRank v0.2","Flagpedia highest-point list and Wikipedia elevation-extremes table, frozen in GeoRank v0.2; values should be treated as game-source values"
Poland,Poland,PL,POL,Warsaw,🇵🇱,52.233717,21.071411,38496000,312679,491,2499,Rysy,medium,"countryinfo Python package dataset, generated 2026-06-17","CIA World Factbook coastline_wf via LSYS/country-coastline-distance, frozen in GeoRank v0.2","Flagpedia highest-point list and Wikipedia elevation-extremes table, frozen in GeoRank v0.2; values should be treated as game-source values"
Portugal,Portugal,PT,PRT,Lisbon,🇵🇹,38.707751,-9.136592,10477800,92090,1793,2351,Montanha do Pico,medium,"countryinfo Python package dataset, generated 2026-06-17","CIA World Factbook coastline_wf via LSYS/country-coastline-distance, frozen in GeoRank v0.2","Flagpedia highest-point list and Wikipedia elevation-extremes table, frozen in GeoRank v0.2; values should be treated as game-source values"
Qatar,Qatar,QA,QAT,Doha,🇶🇦,25.285633,51.526416,2269672,11586,563,103,Qurayn Abu al Bawl,medium,"countryinfo Python package dataset, generated 2026-06-17","CIA World Factbook coastline_wf via LSYS/country-coastline-distance, frozen in GeoRank v0.2","Flagpedia highest-point list and Wikipedia elevation-extremes table, frozen in GeoRank v0.2; values should be treated as game-source values"
Republic of the Congo,Republic of the Congo,CG,COG,Brazzaville,🇨🇬,-4.269441,15.271226,4559000,342000,169,1020,Mont Nabemba,medium,"countryinfo Python package dataset, generated 2026-06-17","CIA World Factbook coastline_wf via LSYS/country-coastline-distance, frozen in GeoRank v0.2","Flagpedia highest-point list and Wikipedia elevation-extremes table, frozen in GeoRank v0.2; values should be treated as game-source values"
Romania,Romania,RO,ROU,Bucharest,🇷🇴,44.436141,26.10272,19942642,238391,225,2544,Moldoveanu,medium,"countryinfo Python package dataset, generated 2026-06-17","CIA World Factbook coastline_wf via LSYS/country-coastline-distance, frozen in GeoRank v0.2","Flagpedia highest-point list and Wikipedia elevation-extremes table, frozen in GeoRank v0.2; values should be treated as game-source values"
Russia,Russia,RU,RUS,Moscow,🇷🇺,55.750446,37.617494,146233000,17124442,37653,5642,Mount Elbrus,easy,"countryinfo Python package dataset, generated 2026-06-17","CIA World Factbook coastline_wf via LSYS/country-coastline-distance, frozen in GeoRank v0.2","Flagpedia highest-point list and Wikipedia elevation-extremes table, frozen in GeoRank v0.2; values should be treated as game-source values"
Rwanda,Rwanda,RW,RWA,Kigali,🇷🇼,-1.88596,30.129675,10996891,26338,0,4507,Mount Karisimbi,medium,"countryinfo Python package dataset, generated 2026-06-17","CIA World Factbook coastline_wf via LSYS/country-coastline-distance, frozen in GeoRank v0.2","Flagpedia highest-point list and Wikipedia elevation-extremes table, frozen in GeoRank v0.2; values should be treated as game-source values"
Saint Kitts and Nevis,Saint Kitts and Nevis,KN,KNA,Basseterre,🇰🇳,17.296092,-62.722301,55000,261,135,1156,Mount Liamuiga,medium,"countryinfo Python package dataset, generated 2026-06-17","CIA World Factbook coastline_wf via LSYS/country-coastline-distance, frozen in GeoRank v0.2","Flagpedia highest-point list and Wikipedia elevation-extremes table, frozen in GeoRank v0.2; values should be treated as game-source values"
Saint Lucia,Saint Lucia,LC,LCA,Castries,🇱🇨,13.952589,-60.987824,184000,616,158,950,Mount Gimie,medium,"countryinfo Python package dataset, generated 2026-06-17","CIA World Factbook coastline_wf via LSYS/country-coastline-distance, frozen in GeoRank v0.2","Flagpedia highest-point list and Wikipedia elevation-extremes table, frozen in GeoRank v0.2; values should be treated as game-source values"
Saint Vincent and the Grenadines,Saint Vincent and the Grenadines,VC,VCT,Kingstown,🇻🇨,13.156186,-61.227962,109000,389,84,1234,La Soufriere,medium,"countryinfo Python package dataset, generated 2026-06-17","CIA World Factbook coastline_wf via LSYS/country-coastline-distance, frozen in GeoRank v0.2","Flagpedia highest-point list and Wikipedia elevation-extremes table, frozen in GeoRank v0.2; values should be treated as game-source values"
Samoa,Samoa,WS,WSM,Apia,🇼🇸,-13.834369,-171.769279,187820,2842,403,1857,Mauga Silisili,medium,"countryinfo Python package dataset, generated 2026-06-17","CIA World Factbook coastline_wf via LSYS/country-coastline-distance, frozen in GeoRank v0.2","Flagpedia highest-point list and Wikipedia elevation-extremes table, frozen in GeoRank v0.2; values should be treated as game-source values"
San Marino,San Marino,SM,SMR,City of San Marino,🇸🇲,43.9364,12.446699,32743,61,0,755,Monte Titano,medium,"countryinfo Python package dataset, generated 2026-06-17","CIA World Factbook coastline_wf via LSYS/country-coastline-distance, frozen in GeoRank v0.2","Flagpedia highest-point list and Wikipedia elevation-extremes table, frozen in GeoRank v0.2; values should be treated as game-source values"
Saudi Arabia,Saudi Arabia,SA,SAU,Riyadh,🇸🇦,24.631969,46.715065,30770375,2149690,2640,3000,Jabal Sawda,medium,"countryinfo Python package dataset, generated 2026-06-17","CIA World Factbook coastline_wf via LSYS/country-coastline-distance, frozen in GeoRank v0.2","Flagpedia highest-point list and Wikipedia elevation-extremes table, frozen in GeoRank v0.2; values should be treated as game-source values"
Senegal,Senegal,SN,SEN,Dakar,🇸🇳,14.693425,-17.447938,13508715,196722,531,648,Nepen Diakha Hills,medium,"countryinfo Python package dataset, generated 2026-06-17","CIA World Factbook coastline_wf via LSYS/country-coastline-distance, frozen in GeoRank v0.2","Flagpedia highest-point list and Wikipedia elevation-extremes table, frozen in GeoRank v0.2; values should be treated as game-source values"
Serbia,Serbia,RS,SRB,Belgrade,🇷🇸,44.817813,20.456897,7186862,49037,0,2169,Midzor,medium,"countryinfo Python package dataset, generated 2026-06-17","CIA World Factbook coastline_wf via LSYS/country-coastline-distance, frozen in GeoRank v0.2","Flagpedia highest-point list and Wikipedia elevation-extremes table, frozen in GeoRank v0.2; values should be treated as game-source values"
Seychelles,Seychelles,SC,SYC,Victoria,🇸🇨,-36.59861,144.678005,89949,452,491,905,Morne Seychellois,medium,"countryinfo Python package dataset, generated 2026-06-17","CIA World Factbook coastline_wf via LSYS/country-coastline-distance, frozen in GeoRank v0.2","Flagpedia highest-point list and Wikipedia elevation-extremes table, frozen in GeoRank v0.2; values should be treated as game-source values"
Sierra Leone,Sierra Leone,SL,SLE,Freetown,🇸🇱,8.479004,-13.26795,6205000,71740,402,1948,Mount Bintumani,medium,"countryinfo Python package dataset, generated 2026-06-17","CIA World Factbook coastline_wf via LSYS/country-coastline-distance, frozen in GeoRank v0.2","Flagpedia highest-point list and Wikipedia elevation-extremes table, frozen in GeoRank v0.2; values should be treated as game-source values"
Singapore,Singapore,SG,SGP,Singapore,🇸🇬,1.357107,103.819499,5469700,710,193,164,Bukit Timah Hill,medium,"countryinfo Python package dataset, generated 2026-06-17","CIA World Factbook coastline_wf via LSYS/country-coastline-distance, frozen in GeoRank v0.2","Flagpedia highest-point list and Wikipedia elevation-extremes table, frozen in GeoRank v0.2; values should be treated as game-source values"
Slovakia,Slovakia,SK,SVK,Bratislava,🇸🇰,48.151699,17.109306,5415949,49037,0,2655,Gerlachovsky stit,medium,"countryinfo Python package dataset, generated 2026-06-17","CIA World Factbook coastline_wf via LSYS/country-coastline-distance, frozen in GeoRank v0.2","Flagpedia highest-point list and Wikipedia elevation-extremes table, frozen in GeoRank v0.2; values should be treated as game-source values"
Slovenia,Slovenia,SI,SVN,Ljubljana,🇸🇮,46.04998,14.50686,2064966,20273,46.6,2864,Triglav,medium,"countryinfo Python package dataset, generated 2026-06-17","CIA World Factbook coastline_wf via LSYS/country-coastline-distance, frozen in GeoRank v0.2","Flagpedia highest-point list and Wikipedia elevation-extremes table, frozen in GeoRank v0.2; values should be treated as game-source values"
Solomon Islands,Solomon Islands,SB,SLB,Honiara,🇸🇧,-9.431077,159.955255,581344,28896,5313,2335,Mount Popomanaseu,veryHard,"countryinfo Python package dataset, generated 2026-06-17","CIA World Factbook coastline_wf via LSYS/country-coastline-distance, frozen in GeoRank v0.2","Flagpedia highest-point list and Wikipedia elevation-extremes table, frozen in GeoRank v0.2; values should be treated as game-source values"
Somalia,Somalia,SO,SOM,Mogadishu,🇸🇴,2.042778,45.338564,10806000,637657,3025,2450,Shimbiris,medium,"countryinfo Python package dataset, generated 2026-06-17","CIA World Factbook coastline_wf via LSYS/country-coastline-distance, frozen in GeoRank v0.2","Flagpedia highest-point list and Wikipedia elevation-extremes table, frozen in GeoRank v0.2; values should be treated as game-source values"
South Korea,South Korea,KR,KOR,Seoul,🇰🇷,37.566679,126.978291,50423955,100210,2413,1950,Halla-san,medium,"countryinfo Python package dataset, generated 2026-06-17","CIA World Factbook coastline_wf via LSYS/country-coastline-distance, frozen in GeoRank v0.2","Flagpedia highest-point list and Wikipedia elevation-extremes table, frozen in GeoRank v0.2; values should be treated as game-source values"
South Sudan,South Sudan,SS,SSD,Juba,🇸🇸,4.847202,31.595166,11384393,619745,0,3187,Kinyeti,medium,"countryinfo Python package dataset, generated 2026-06-17","CIA World Factbook coastline_wf via LSYS/country-coastline-distance, frozen in GeoRank v0.2; landlocked manual value added for South Sudan","Flagpedia highest-point list and Wikipedia elevation-extremes table, frozen in GeoRank v0.2; values should be treated as game-source values"
Spain,Spain,ES,ESP,Madrid,🇪🇸,40.416705,-3.703582,46507760,505992,4964,3718,Teide,easy,"countryinfo Python package dataset, generated 2026-06-17","CIA World Factbook coastline_wf via LSYS/country-coastline-distance, frozen in GeoRank v0.2","Flagpedia highest-point list and Wikipedia elevation-extremes table, frozen in GeoRank v0.2; values should be treated as game-source values"
Sri Lanka,Sri Lanka,LK,LKA,Colombo,🇱🇰,6.934997,79.853846,20277597,65610,1340,2524,Pidurutalagala,medium,"countryinfo Python package dataset, generated 2026-06-17","CIA World Factbook coastline_wf via LSYS/country-coastline-distance, frozen in GeoRank v0.2","Flagpedia highest-point list and Wikipedia elevation-extremes table, frozen in GeoRank v0.2; values should be treated as game-source values"
Sudan,Sudan,SD,SDN,Khartoum,🇸🇩,15.593325,32.53565,37289406,1886068,853,3042,Deriba Caldera,medium,"countryinfo Python package dataset, generated 2026-06-17","CIA World Factbook coastline_wf via LSYS/country-coastline-distance, frozen in GeoRank v0.2","Flagpedia highest-point list and Wikipedia elevation-extremes table, frozen in GeoRank v0.2; values should be treated as game-source values"
Suriname,Suriname,SR,SUR,Paramaribo,🇸🇷,5.821609,-55.177043,534189,163820,386,1230,Juliana Top,medium,"countryinfo Python package dataset, generated 2026-06-17","CIA World Factbook coastline_wf via LSYS/country-coastline-distance, frozen in GeoRank v0.2","Flagpedia highest-point list and Wikipedia elevation-extremes table, frozen in GeoRank v0.2; values should be treated as game-source values"
Sweden,Sweden,SE,SWE,Stockholm,🇸🇪,59.325117,18.071094,9737521,450295,3218,2097,Kebnekaise,medium,"countryinfo Python package dataset, generated 2026-06-17","CIA World Factbook coastline_wf via LSYS/country-coastline-distance, frozen in GeoRank v0.2","Flagpedia highest-point list and Wikipedia elevation-extremes table, frozen in GeoRank v0.2; values should be treated as game-source values"
Switzerland,Switzerland,CH,CHE,Bern,🇨🇭,46.948271,7.451451,8183800,41284,0,4634,Dufourspitze,medium,"countryinfo Python package dataset, generated 2026-06-17","CIA World Factbook coastline_wf via LSYS/country-coastline-distance, frozen in GeoRank v0.2","Flagpedia highest-point list and Wikipedia elevation-extremes table, frozen in GeoRank v0.2; values should be treated as game-source values"
Syria,Syria,SY,SYR,Damascus,🇸🇾,33.51307,36.309581,22964324,185180,193,2814,Jabal el-Sheikh,medium,"countryinfo Python package dataset, generated 2026-06-17","CIA World Factbook coastline_wf via LSYS/country-coastline-distance, frozen in GeoRank v0.2","Flagpedia highest-point list and Wikipedia elevation-extremes table, frozen in GeoRank v0.2; values should be treated as game-source values"
São Tomé and Príncipe,São Tomé and Príncipe,ST,STP,São Tomé,🇸🇹,0.338924,6.731303,187356,964,209,2024,Pico de Sao Tome,veryHard,"countryinfo Python package dataset, generated 2026-06-17","CIA World Factbook coastline_wf via LSYS/country-coastline-distance, frozen in GeoRank v0.2","Flagpedia highest-point list and Wikipedia elevation-extremes table, frozen in GeoRank v0.2; values should be treated as game-source values"
Tajikistan,Tajikistan,TJ,TJK,Dushanbe,🇹🇯,38.542584,68.815214,8161000,143100,0,7495,Ismoil Somoni Peak,hard,"countryinfo Python package dataset, generated 2026-06-17","CIA World Factbook coastline_wf via LSYS/country-coastline-distance, frozen in GeoRank v0.2","Flagpedia highest-point list and Wikipedia elevation-extremes table, frozen in GeoRank v0.2; values should be treated as game-source values"
Tanzania,Tanzania,TZ,TZA,Dodoma,🇹🇿,-6.337282,35.737177,47421786,945087,1424,5892,Kilimanjaro,medium,"countryinfo Python package dataset, generated 2026-06-17","CIA World Factbook coastline_wf via LSYS/country-coastline-distance, frozen in GeoRank v0.2","Flagpedia highest-point list and Wikipedia elevation-extremes table, frozen in GeoRank v0.2; values should be treated as game-source values"
Thailand,Thailand,TH,THA,Bangkok,🇹🇭,13.754253,100.493087,64871000,513120,3219,2565,Doi Inthanon,medium,"countryinfo Python package dataset, generated 2026-06-17","CIA World Factbook coastline_wf via LSYS/country-coastline-distance, frozen in GeoRank v0.2","Flagpedia highest-point list and Wikipedia elevation-extremes table, frozen in GeoRank v0.2; values should be treated as game-source values"
East Timor,Timor-Leste,TL,TLS,Dili,🇹🇱,28.651718,77.221939,1172390,14874,706,2963,Mount Ramelau,medium,"countryinfo Python package dataset, generated 2026-06-17","CIA World Factbook coastline_wf via LSYS/country-coastline-distance, frozen in GeoRank v0.2","Flagpedia highest-point list and Wikipedia elevation-extremes table, frozen in GeoRank v0.2; values should be treated as game-source values"
Togo,Togo,TG,TGO,Lomé,🇹🇬,6.130419,1.215829,6993000,56785,56,986,Mont Agou,medium,"countryinfo Python package dataset, generated 2026-06-17","CIA World Factbook coastline_wf via LSYS/country-coastline-distance, frozen in GeoRank v0.2","Flagpedia highest-point list and Wikipedia elevation-extremes table, frozen in GeoRank v0.2; values should be treated as game-source values"
Tonga,Tonga,TO,TON,Nuku'alofa,🇹🇴,-21.13434,-175.201808,103252,747,419,1033,Kao Island high point,veryHard,"countryinfo Python package dataset, generated 2026-06-17","CIA World Factbook coastline_wf via LSYS/country-coastline-distance, frozen in GeoRank v0.2","Flagpedia highest-point list and Wikipedia elevation-extremes table, frozen in GeoRank v0.2; values should be treated as game-source values"
Trinidad and Tobago,Trinidad and Tobago,TT,TTO,Port of Spain,🇹🇹,10.657268,-61.518017,1328019,5130,362,940,El Cerro del Aripo,medium,"countryinfo Python package dataset, generated 2026-06-17","CIA World Factbook coastline_wf via LSYS/country-coastline-distance, frozen in GeoRank v0.2","Flagpedia highest-point list and Wikipedia elevation-extremes table, frozen in GeoRank v0.2; values should be treated as game-source values"
Tunisia,Tunisia,TN,TUN,Tunis,🇹🇳,33.843941,9.400138,10982754,163610,1148,1544,Jebel ech Chambi,medium,"countryinfo Python package dataset, generated 2026-06-17","CIA World Factbook coastline_wf via LSYS/country-coastline-distance, frozen in GeoRank v0.2","Flagpedia highest-point list and Wikipedia elevation-extremes table, frozen in GeoRank v0.2; values should be treated as game-source values"
Turkmenistan,Turkmenistan,TM,TKM,Ashgabat,🇹🇲,37.939668,58.387426,5838064,488100,0,3139,Ayribaba,hard,"countryinfo Python package dataset, generated 2026-06-17","CIA World Factbook coastline_wf via LSYS/country-coastline-distance, frozen in GeoRank v0.2","Flagpedia highest-point list and Wikipedia elevation-extremes table, frozen in GeoRank v0.2; values should be treated as game-source values"
Tuvalu,Tuvalu,TV,TUV,Funafuti,🇹🇻,-8.534995,179.11865,11323,26,24,5,Niulakita high point,veryHard,"countryinfo Python package dataset, generated 2026-06-17","CIA World Factbook coastline_wf via LSYS/country-coastline-distance, frozen in GeoRank v0.2","Flagpedia highest-point list and Wikipedia elevation-extremes table, frozen in GeoRank v0.2; values should be treated as game-source values"
Turkey,Türkiye,TR,TUR,Ankara,🇹🇷,39.920777,32.854067,76667864,783562,7200,5137,Mount Ararat,medium,"countryinfo Python package dataset, generated 2026-06-17","CIA World Factbook coastline_wf via LSYS/country-coastline-distance, frozen in GeoRank v0.2","Flagpedia highest-point list and Wikipedia elevation-extremes table, frozen in GeoRank v0.2; values should be treated as game-source values"
Uganda,Uganda,UG,UGA,Kampala,🇺🇬,0.317714,32.581354,34856813,241550,0,5109,Mount Stanley,medium,"countryinfo Python package dataset, generated 2026-06-17","CIA World Factbook coastline_wf via LSYS/country-coastline-distance, frozen in GeoRank v0.2","Flagpedia highest-point list and Wikipedia elevation-extremes table, frozen in GeoRank v0.2; values should be treated as game-source values"
Ukraine,Ukraine,UA,UKR,Kiev,🇺🇦,50.450034,30.524136,42973696,603700,2782,2061,Hoverla,medium,"countryinfo Python package dataset, generated 2026-06-17","CIA World Factbook coastline_wf via LSYS/country-coastline-distance, frozen in GeoRank v0.2","Flagpedia highest-point list and Wikipedia elevation-extremes table, frozen in GeoRank v0.2; values should be treated as game-source values"
United Arab Emirates,United Arab Emirates,AE,ARE,Abu Dhabi,🇦🇪,24.474796,54.370576,9446000,83600,1318,1910,Jabal Al Jais,medium,"countryinfo Python package dataset, generated 2026-06-17","CIA World Factbook coastline_wf via LSYS/country-coastline-distance, frozen in GeoRank v0.2","Flagpedia highest-point list and Wikipedia elevation-extremes table, frozen in GeoRank v0.2; values should be treated as game-source values"
United Kingdom,United Kingdom,GB,GBR,London,🇬🇧,51.507322,-0.127647,64105654,242900,12429,1345,Ben Nevis,easy,"countryinfo Python package dataset, generated 2026-06-17","CIA World Factbook coastline_wf via LSYS/country-coastline-distance, frozen in GeoRank v0.2","Flagpedia highest-point list and Wikipedia elevation-extremes table, frozen in GeoRank v0.2; values should be treated as game-source values"
United States,United States,US,USA,Washington D.C.,🇺🇸,38.894986,-77.036571,319259000,9629091,19924,6191,Denali,easy,"countryinfo Python package dataset, generated 2026-06-17","CIA World Factbook coastline_wf via LSYS/country-coastline-distance, frozen in GeoRank v0.2","Flagpedia highest-point list and Wikipedia elevation-extremes table, frozen in GeoRank v0.2; values should be treated as game-source values"
Uruguay,Uruguay,UY,URY,Montevideo,🇺🇾,-34.905904,-56.191357,3404189,181034,660,514,Cerro Catedral,medium,"countryinfo Python package dataset, generated 2026-06-17","CIA World Factbook coastline_wf via LSYS/country-coastline-distance, frozen in GeoRank v0.2","Flagpedia highest-point list and Wikipedia elevation-extremes table, frozen in GeoRank v0.2; values should be treated as game-source values"
Uzbekistan,Uzbekistan,UZ,UZB,Tashkent,🇺🇿,41.312336,69.278708,30492800,447400,0,4643,Khazret Sultan,hard,"countryinfo Python package dataset, generated 2026-06-17","CIA World Factbook coastline_wf via LSYS/country-coastline-distance, frozen in GeoRank v0.2","Flagpedia highest-point list and Wikipedia elevation-extremes table, frozen in GeoRank v0.2; values should be treated as game-source values"
Vanuatu,Vanuatu,VU,VUT,Port Vila,🇻🇺,-17.741497,168.315016,264652,12189,2528,1877,Mount Tabwemasana,hard,"countryinfo Python package dataset, generated 2026-06-17","CIA World Factbook coastline_wf via LSYS/country-coastline-distance, frozen in GeoRank v0.2","Flagpedia highest-point list and Wikipedia elevation-extremes table, frozen in GeoRank v0.2; values should be treated as game-source values"
Venezuela,Venezuela,VE,VEN,Caracas,🇻🇪,10.506098,-66.914602,30206307,916445,2800,4978,Pico Bolivar,medium,"countryinfo Python package dataset, generated 2026-06-17","CIA World Factbook coastline_wf via LSYS/country-coastline-distance, frozen in GeoRank v0.2","Flagpedia highest-point list and Wikipedia elevation-extremes table, frozen in GeoRank v0.2; values should be treated as game-source values"
Vietnam,Vietnam,VN,VNM,Hanoi,🇻🇳,21.02945,105.854444,89708900,331212,3444,3143,Fan Si Pan,medium,"countryinfo Python package dataset, generated 2026-06-17","CIA World Factbook coastline_wf via LSYS/country-coastline-distance, frozen in GeoRank v0.2","Flagpedia highest-point list and Wikipedia elevation-extremes table, frozen in GeoRank v0.2; values should be treated as game-source values"
Yemen,Yemen,YE,YEM,Sana'a,🇾🇪,15.353857,44.205884,25956000,527968,1906,3666,Jabal An-Nabi Shu'ayb,medium,"countryinfo Python package dataset, generated 2026-06-17","CIA World Factbook coastline_wf via LSYS/country-coastline-distance, frozen in GeoRank v0.2","Flagpedia highest-point list and Wikipedia elevation-extremes table, frozen in GeoRank v0.2; values should be treated as game-source values"
Zambia,Zambia,ZM,ZMB,Lusaka,🇿🇲,-15.416449,28.282154,15023315,752612,0,2329,Mafinga Central,medium,"countryinfo Python package dataset, generated 2026-06-17","CIA World Factbook coastline_wf via LSYS/country-coastline-distance, frozen in GeoRank v0.2","Flagpedia highest-point list and Wikipedia elevation-extremes table, frozen in GeoRank v0.2; values should be treated as game-source values"
Zimbabwe,Zimbabwe,ZW,ZWE,Harare,🇿🇼,-17.831773,31.045686,13061239,390757,0,2592,Mount Nyangani,medium,"countryinfo Python package dataset, generated 2026-06-17","CIA World Factbook coastline_wf via LSYS/country-coastline-distance, frozen in GeoRank v0.2","Flagpedia highest-point list and Wikipedia elevation-extremes table, frozen in GeoRank v0.2; values should be treated as game-source values"
